{"type":"FeatureCollection","features":[{"type":"Feature","properties":{"marker-color":"#7e7e7e","marker-size":"medium","marker-symbol":"","type":"restauracja","name":"Pod Kasztanem","address":"ul. Mikołowska 143","number":"32 216 83 59","link":"https://www.facebook.com/Restauracja-Pod-Kasztanem-127598150719124/","opHours":"Pon-Sob: 09:00-18:00, Nd: 09:00-17:00"},"geometry":{"type":"Point","coordinates":[18.953763355114123,50.14621942570373]}},{"type":"Feature","properties":{"marker-color":"#7e7e7e","marker-size":"medium","marker-symbol":"","type":"restauracja","name":"Tichauer Restaurant","address":"ul. Browarowa 21","number":"666 306 774","link":"https://browarobywatelski.pl/restauracja","opHours":"Pon-Sob: 12:00-22:00, Nd: 12:00-21:00"},"geometry":{"type":"Point","coordinates":[18.9630243581917,50.134167685310224]}},{"type":"Feature","properties":{"marker-color":"#7e7e7e","marker-size":"medium","marker-symbol":"","type":"kawiarnia","name":"W międzyczasie","address":"ul. Kościuszki 19","number":"534 281 638","link":"https://wmiedzyczasie.tychy.pl/","opHours":"Pon-Czw: 10:00-21:00, Pt-Sob: 10:00-22:00, Nd: 12:00-21:00"},"geometry":{"type":"Point","coordinates":[18.985087510651113,50.12895961918394]}},{"type":"Feature","properties":{"marker-color":"#7e7e7e","marker-size":"medium","marker-symbol":"","type":"restauracja","name":"Joker","address":"ul. Boczna 4","number":"32 219 27 69","link":"https://joker.tyski.pl","opHours":"Pon: 10:00-20:00, Wt-Czw: 10:00-21:00, Pt-Sob: 10:00-22:00, Nd: 10:00-18:00"},"geometry":{"type":"Point","coordinates":[18.982968192076388,50.12810103995757]}},{"type":"Feature","properties":{"marker-color":"#7e7e7e","marker-size":"medium","marker-symbol":"","type":"restauracja","name":"Culinarium","address":"ul. Sienkiewicza 15","number":"32 219 22 22","link":"https://www.facebook.com/Culinarium-739083402901619/","opHours":"Pon-Nd: 11:00-18:00"},"geometry":{"type":"Point","coordinates":[18.98423820734024,50.12809631064922]}},{"type":"Feature","properties":{"marker-color":"#7e7e7e","marker-size":"medium","marker-symbol":"","type":"restauracja","name":"Avanti Steak House","address":"ul. Batorego 24","number":"32 780 18 01","link":"https://avantisteakhouse.eatbu.com","opHours":"Pon-Czw: 12:00-22:00, Pt-Sob: 12:00-23:30, Nd: 12:00-22:00"},"geometry":{"type":"Point","coordinates":[18.981966782960917,50.12635988984759]}},{"type":"Feature","properties":{"marker-color":"#7e7e7e","marker-size":"medium","marker-symbol":"","type":"wloska","name":"Osteria Le Botti","address":"ul. Barona 30","number":"790 771 778","link":"https://www.osterialebotti.pl","opHours":"Pon-Sob: 11:00-21:30, Nd: 12:00-21:30"},"geometry":{"type":"Point","coordinates":[18.97836862867016,50.12419162742756]}},{"type":"Feature","properties":{"marker-color":"#7e7e7e","marker-size":"medium","marker-symbol":"","type":"restauracja","name":"Stadionova","address":"ul. Edukacji 7","number":"535 333 233","link":"http://stadionova.pl","opHours":"Pon-Czw: 12:00-21:00, Pt-Sob: 12:00-22:00, Nd: 12:00-20:00"},"geometry":{"type":"Point","coordinates":[18.989916583532146,50.123555368583666]}},{"type":"Feature","properties":{"marker-color":"#7e7e7e","marker-size":"medium","marker-symbol":"","type":"restauracja","name":"Rock&Rondel","address":"ul. Hierowskiego 61","number":"790 428 428","link":"http://www.rockandrondel.pl","opHours":"Pon-Czw: 12:00-22:00, Pt-Sob: 12:00-00:00, Nd: 12:00-22:00"},"geometry":{"type":"Point","coordinates":[18.970599467363755,50.11539296717862]}},{"type":"Feature","properties":{"marker-color":"#7e7e7e","marker-size":"medium","marker-symbol":"","type":"restauracja","name":"Servicom Lounge","address":"ul. Szkolna 69","number":"795 035 055","link":"https://www.facebook.com/servicomlounge/","opHours":"Śr-Czw: 12:00-20:00, Pt-Sob: 12:00-21:00, Nd: 12:00-20:00"},"geometry":{"type":"Point","coordinates":[18.948001171994004,50.145543697586476]}},{"type":"Feature","properties":{"marker-color":"#7e7e7e","marker-size":"medium","marker-symbol":"","type":"restauracja","name":"Polonez","address":"ul. Damrota 35","number":"219 35 97","link":"http://polonez.com.pl","opHours":"Pon-Nd: całodobowo"},"geometry":{"type":"Point","coordinates":[18.96287725149722,50.135493489361416]}},{"type":"Feature","properties":{"marker-color":"#7e7e7e","marker-size":"medium","marker-symbol":"","type":"restauracja","name":"Wenecja","address":"ul. Nowokościelna 21","number":"519 158 960","link":"https://www.wenecja.tychy.pl","opHours":"Wt-Czw: 12:00-20:00, Pt: 12:00-21:00, Sob: 11:00-21:00, Nd:  11:00-20:00"},"geometry":{"type":"Point","coordinates":[18.97582165883477,50.13466514103514]}},{"type":"Feature","properties":{"marker-color":"#7e7e7e","marker-size":"medium","marker-symbol":"","type":"restauracja","name":"Bistro Stara Kamienica","address":"ul. Sienkiewicza 2","number":"668 543 951","link":"https://www.facebook.com/bistrorestauracja/","opHours":"Pon-Nd: 12:00-18:00"},"geometry":{"type":"Point","coordinates":[18.98269344232704,50.12958383628746]}},{"type":"Feature","properties":{"marker-color":"#7e7e7e","marker-size":"medium","marker-symbol":"","type":"kebab","name":"Metin Kebab","address":"ul. Budowlanych 75","number":"574 304 206","link":"https://www.facebook.com/Metin-Kebab-377732969046814/","opHours":"Pon-Wt: 13:00-21:00, Śr: 12:00-21:00, Czw: 11:30-21:00, Pt-Sob: 13:00-21:00"},"geometry":{"type":"Point","coordinates":[18.972111320406974,50.12704197099397]}},{"type":"Feature","properties":{"marker-color":"#7e7e7e","marker-size":"medium","marker-symbol":"","type":"orientalna","name":"Thanh Binh","address":"ul. Budowlanych 96","number":"32 327 11 47","link":"http://thanh-binh.pl/","opHours":"Pon-Pt: 10:00-21:00, Sob: 11:00-21:00, Nd: 11:00-20:30"},"geometry":{"type":"Point","coordinates":[18.97479352940807,50.12750968102778]}},{"type":"Feature","properties":{"marker-color":"#7e7e7e","marker-size":"medium","marker-symbol":"","type":"restauracja","name":"Andromeda","address":"ul. Baczyńskiego 2","number":"790 702 702","link":"https://www.facebook.com/BarMlecznyAndromeda/","opHours":"Pon-Pt: 11:00-18:00, Sob: 11:00-16:00"},"geometry":{"type":"Point","coordinates":[18.98325115442276,50.12574398677632]}},{"type":"Feature","properties":{"marker-color":"#7e7e7e","marker-size":"medium","marker-symbol":"","type":"fastfood","name":"TODOJUTRA - kultowe zapiexy","address":"ul. Batorego 27","number":"507 020 003","link":"https://www.todojutra.pl/tychy","opHours":"Pon-Czw: 10:30-0:00, Pt: 10:30-01:00, Sob: 12:00-01:00, Nd: 12:00-0:00"},"geometry":{"type":"Point","coordinates":[18.981892370396906,50.1258121854207]}},{"type":"Feature","properties":{"marker-color":"#7e7e7e","marker-size":"medium","marker-symbol":"","type":"pizza","name":"La Fontana Pizza Napoletana","address":"ul. Batorego 23","number":"883 733 700","link":"http://lafontana.pl","opHours":"Pon-Czw: 13:00-21:00, Pt-Sob: 13:00-22:00, Nd: 13:00-21:00"},"geometry":{"type":"Point","coordinates":[18.982590164768144,50.125793579336275]}},{"type":"Feature","properties":{"marker-color":"#7e7e7e","marker-size":"medium","marker-symbol":"","type":"pizza","name":"Pizza Saluto","address":"ul. Batorego 15","number":"577 274 040","link":"http://www.pizzasaluto.pl/","opHours":"Pon-Czw: 12:00-22:00, Pt-Sob: 12:00-23:00, Nd: 12:00-22:00"},"geometry":{"type":"Point","coordinates":[18.983671742248333,50.125763204604624]}},{"type":"Feature","properties":{"marker-color":"#7e7e7e","marker-size":"medium","marker-symbol":"","type":"kebab","name":"Efes Kebab","address":"ul. Begonii 2","number":"510 744 581","link":"https://www.efeskebab2begonii.pl","opHours":"Pon-Sob: 11:00-22:00, Nd: 14:00-22:00"},"geometry":{"type":"Point","coordinates":[18.980608659568368,50.124672980652065]}},{"type":"Feature","properties":{"marker-color":"#7e7e7e","marker-size":"medium","marker-symbol":"","type":"pizza","name":"Pizzeria 15","address":"ul. Sienkiewicza 15","number":"32 219 22 22","link":"(brak danych)","opHours":"Pon-Sob: 09:00-23:00, Nd: 10:00-23:00"},"geometry":{"type":"Point","coordinates":[18.98411714837888,50.127847403760875]}},{"type":"Feature","properties":{"marker-color":"#7e7e7e","marker-size":"medium","marker-symbol":"","type":"orientalna","name":"Misz Masz","address":"ul. Sienkiewicza 7","number":"533 115 116","link":"https://www.miszmasztychy.pl","opHours":"Wt: 12:00-21:00, Czw-Sob: 12:00-21:00, Nd: 12:00-18:00"},"geometry":{"type":"Point","coordinates":[18.98382844950733,50.12871205776738]}},{"type":"Feature","properties":{"marker-color":"#7e7e7e","marker-size":"medium","marker-symbol":"","type":"fastfood","name":"McDonald's","address":"ul. Dołowa 1","number":"728 482 282","link":"https://mcdonalds.pl","opHours":"Pon-Nd: 07:00-23:00"},"geometry":{"type":"Point","coordinates":[18.97708832632067,50.136864390417614]}},{"type":"Feature","properties":{"marker-color":"#7e7e7e","marker-size":"medium","marker-symbol":"","type":"restauracja","name":"Biały obrus","address":"ul. Żwakowska 40","number":"606 185 933","link":"https://bialyobrus.pl","opHours":"(brak danych)"},"geometry":{"type":"Point","coordinates":[18.971458294448123,50.12317685159456]}},{"type":"Feature","properties":{"marker-color":"#7e7e7e","marker-size":"medium","marker-symbol":"","type":"pizza","name":"Pizzeria Dalton","address":"ul. Harcerska 15","number":"32 218 18 18","link":"http://daltonpizza.com","opHours":"Pon-Nd: 13:00-0:00"},"geometry":{"type":"Point","coordinates":[18.973026089963472,50.119141931746775]}},{"type":"Feature","properties":{"marker-color":"#7e7e7e","marker-size":"medium","marker-symbol":"","type":"kebab","name":"Efes Kebab","address":"ul. Żwakowska 20","number":"505 322 386","link":"https://www.facebook.com/Efes-Kebab-240876119447738/","opHours":"Pon-Sob: 11:00-23:00, Nd: 14:00-22:00"},"geometry":{"type":"Point","coordinates":[18.97653252078379,50.118031938242574]}},{"type":"Feature","properties":{"marker-color":"#7e7e7e","marker-size":"medium","marker-symbol":"","type":"fastfood","name":"Burger PO BYKU","address":"ul. Hierowskiego 21A","number":"576 922 391","link":"https://www.facebook.com/Burger-PO-BYKU-108629964752656/","opHours":"Pon-Nd: 12:00-22:00"},"geometry":{"type":"Point","coordinates":[18.97540091021629,50.114233104365255]}},{"type":"Feature","properties":{"marker-color":"#7e7e7e","marker-size":"medium","marker-symbol":"","type":"fastfood","name":"McDonald's","address":"al. Bielska 110","number":"784 570 871","link":"https://mcdonalds.pl","opHours":"Pon-Nd: 07:00-0:00"},"geometry":{"type":"Point","coordinates":[18.978046425490824,50.11107311736698]}},{"type":"Feature","properties":{"marker-color":"#7e7e7e","marker-size":"medium","marker-symbol":"","type":"orientalna","name":"Kami Sushi","address":"ul. Legionów Polskich 38","number":"735 291 291","link":"http://kamisushi.pl","opHours":"Pon-Czw: 12:00-21:30, Pt-Sob: 12:00-22:00, Nd: 12:00-20:00"},"geometry":{"type":"Point","coordinates":[18.968399575910304,50.108016891496526]}},{"type":"Feature","properties":{"marker-color":"#7e7e7e","marker-size":"medium","marker-symbol":"","type":"fastfood","name":"Zakręcony Burger","address":"ul. Kubicy 7b","number":"577 022 800","link":"https://www.zakreconyburger.pl","opHours":"Pon-Nd: 09:00-22:00"},"geometry":{"type":"Point","coordinates":[18.97411556779981,50.10996999898003]}},{"type":"Feature","properties":{"marker-color":"#7e7e7e","marker-size":"medium","marker-symbol":"","type":"restauracja","name":"Niebo w Gębie","address":"al. Bielska 114","number":"572 457 063","link":"https://www.niebowgebietychy.pl","opHours":"Pon-Pt: 05:00-17:00"},"geometry":{"type":"Point","coordinates":[18.977598106020896,50.10980878026654]}},{"type":"Feature","properties":{"marker-color":"#7e7e7e","marker-size":"medium","marker-symbol":"","type":"restauracja","name":"Elita","address":"ul. Nowa 8","number":"600 720 111","link":"(brak danych)","opHours":"Pon-Nd: 13:00-21:00"},"geometry":{"type":"Point","coordinates":[18.961116873366798,50.10810146530101]}},{"type":"Feature","properties":{"marker-color":"#7e7e7e","marker-size":"medium","marker-symbol":"","type":"restauracja","name":"Pod Napięciem","address":"ul. Myśliwska 135","number":"797 445 545","link":"https://restauracja-pod-napieciem.business.site","opHours":"Wt-Pt: 12:00-22:00, Sob-Nd: 10:00-22:00"},"geometry":{"type":"Point","coordinates":[18.95370350517074,50.10971920452275]}},{"type":"Feature","properties":{"marker-color":"#7e7e7e","marker-size":"medium","marker-symbol":"","type":"restauracja","name":"Fantazja","address":"ul. Zagrodowa 6","number":"322 195 319","link":"https://www.facebook.com/Restauracja-Fantazja-Tychy-102444501339643/","opHours":"Pon-Sob: 12:00-22:00, Nd: 13:00-22:00"},"geometry":{"type":"Point","coordinates":[18.96886812679722,50.11734805502819]}},{"type":"Feature","properties":{"marker-color":"#7e7e7e","marker-size":"medium","marker-symbol":"","type":"pierogi","name":"Pierogarnia Tyska","address":"al. Bielska 155","number":"535 822 655","link":"https://www.pierogarniatyska.pl","opHours":"Pon-Nd: 12:00-21:00"},"geometry":{"type":"Point","coordinates":[18.97234525561416,50.10388012276655]}},{"type":"Feature","properties":{"marker-color":"#7e7e7e","marker-size":"medium","marker-symbol":"","type":"restauracja","name":"Ragtime","address":"ul. Witosa 28","number":"32 328 60 46","link":"https://www.facebook.com/Bar-Ragtime-1566196646770692/","opHours":"Pon-Nd: 08:00-22:00"},"geometry":{"type":"Point","coordinates":[18.986177145145916,50.10038152710442]}},{"type":"Feature","properties":{"marker-color":"#7e7e7e","marker-size":"medium","marker-symbol":"","type":"restauracja","name":"Pod Prosiakiem","address":"ul. Armii Krajowej 105A","number":"502 545 967","link":"https://www.podprosiakiem.pl","opHours":"Pon-Pt: 12:00-22:00, Sob: 12:00-23:00, Nd: 12:00-22:00"},"geometry":{"type":"Point","coordinates":[18.986140632371207,50.09544977096985]}},{"type":"Feature","properties":{"marker-color":"#7e7e7e","marker-size":"medium","marker-symbol":"","type":"restauracja","name":"Widok","address":"ul. Nad Jeziorem 8","number":"32 218 62 99","link":"https://www.facebook.com/AleWidok/","opHours":"Pon-Nd: 12:00-22:00"},"geometry":{"type":"Point","coordinates":[18.988024162569964,50.093778761052704]}},{"type":"Feature","properties":{"marker-color":"#7e7e7e","marker-size":"medium","marker-symbol":"","type":"restauracja","name":"Dom Bawarski","address":"ul. Hutnicza 70","number":"32 328 60 06","link":"https://www.facebook.com/dombawarski/","opHours":"Pon-Nd: 12:00-22:00"},"geometry":{"type":"Point","coordinates":[18.99159461651305,50.09387215047772]}},{"type":"Feature","properties":{"marker-color":"#7e7e7e","marker-size":"medium","marker-symbol":"","type":"restauracja","name":"Pub Trzynastka","address":"ul. Nad Jeziorem 54","number":"32 219 73 81","link":"https://www.facebook.com/TrzynastkaTychy","opHours":"Pon-Pt: 10:00-22:00, Sob-Nd: 09:00-22:00"},"geometry":{"type":"Point","coordinates":[18.99409590466975,50.09282362234659]}},{"type":"Feature","properties":{"marker-color":"#7e7e7e","marker-size":"medium","marker-symbol":"","type":"kebab","name":"Besili Doner Kebab","address":"ul. Sikorskiego 76","number":"(brak danych)","link":"(brak danych)","opHours":"Pon-Nd: 12:00-22:00"},"geometry":{"type":"Point","coordinates":[18.994117991100342,50.09336560090104]}},{"type":"Feature","properties":{"marker-color":"#7e7e7e","marker-size":"medium","marker-symbol":"","type":"fastfood","name":"Przystanek ogień i dym","address":"ul. Sikorskiego 86","number":"503 868 646","link":"https://przystanek-ogien-i-dym-express.business.site","opHours":"(brak danych)"},"geometry":{"type":"Point","coordinates":[18.994063402971562,50.09317230276477]}},{"type":"Feature","properties":{"marker-color":"#7e7e7e","marker-size":"medium","marker-symbol":"","type":"restauracja","name":"Huta Paprocka","address":"ul. Nad Jeziorem 44","number":"601 403 466","link":"http://www.huta-paprocka.pl","opHours":"Sob-Nd: 12:00-20:00"},"geometry":{"type":"Point","coordinates":[18.993475415744392,50.09187243437974]}},{"type":"Feature","properties":{"marker-color":"#7e7e7e","marker-size":"medium","marker-symbol":"","type":"restauracja","name":"Magiczna","address":"ul. Strzelecka 85","number":"668 291 465","link":"https://www.facebook.com/RestauracjaMagiczna/","opHours":"Wt-Pt: 12:00-18:00, Sob-Nd: 12:00-19:30"},"geometry":{"type":"Point","coordinates":[19.0071629465316,50.08659597413421]}},{"type":"Feature","properties":{"marker-color":"#7e7e7e","marker-size":"medium","marker-symbol":"","type":"restauracja","name":"Victoria","address":"ul. Szojdy 10","number":"607 780 069","link":"https://www.facebook.com/RestauracjaiDomPrzyjecVictoria/","opHours":"Wt-Czw: 12:00-18:00, Pt-Nd: 12:00-20:00"},"geometry":{"type":"Point","coordinates":[19.00825970799258,50.08940808012167]}},{"type":"Feature","properties":{"marker-color":"#7e7e7e","marker-size":"medium","marker-symbol":"","type":"fastfood","name":"McDonald's","address":"ul. Towarowa 2C","number":"539 732 343","link":"https://mcdonalds.pl","opHours":"Pon-Sob: 09:00-21:00, Nd handlowa: 09:00-20:00"},"geometry":{"type":"Point","coordinates":[19.0100035071373,50.09655558525272]}},{"type":"Feature","properties":{"marker-color":"#7e7e7e","marker-size":"medium","marker-symbol":"","type":"fastfood","name":"Max Premium Burgers","address":"ul. Fabryczna 3b","number":"32 720 37 83","link":"https://www.maxpremiumburgers.pl","opHours":"Pon-Sob: 08:00-00:00, Nd: 09:00-0:00"},"geometry":{"type":"Point","coordinates":[19.00736689567566,50.102819973792144]}},{"type":"Feature","properties":{"marker-color":"#7e7e7e","marker-size":"medium","marker-symbol":"","type":"fastfood","name":"Retro Diner","address":"ul. Przemysłowa 31","number":"786 932 101","link":"https://www.facebook.com/RetroDinerTychy/","opHours":"Pon-Nd: 10:00-22:00"},"geometry":{"type":"Point","coordinates":[19.006664307828345,50.105551712751954]}},{"type":"Feature","properties":{"marker-color":"#7e7e7e","marker-size":"medium","marker-symbol":"","type":"restauracja","name":"Izabell","address":"ul. Piaskowa 83","number":"733 665 662","link":"https://www.facebook.com/domprzyjec","opHours":"(brak danych)"},"geometry":{"type":"Point","coordinates":[18.991306306412767,50.146766451449636]}},{"type":"Feature","properties":{"marker-color":"#7e7e7e","marker-size":"medium","marker-symbol":"","type":"fastfood","name":"KFC","address":"ul. Katowicka, Oświęcimska 1","number":"801 464 646","link":"https://kfc.pl","opHours":"Pon-Nd: 7:00-24:00"},"geometry":{"type":"Point","coordinates":[18.99231058565273,50.13272757245237]}},{"type":"Feature","properties":{"marker-color":"#7e7e7e","marker-size":"medium","marker-symbol":"","type":"restauracja","name":"Mega Smak","address":"ul.  Katowicka 10","number":"796 622 522","link":"https://www.facebook.com/pages/category/Restaurant/Mega-Smak-Flora-Tychy-103778905114346/","opHours":"Pon-Nd: 8:00-18:00"},"geometry":{"type":"Point","coordinates":[18.99126034732873,50.13061228244401]}},{"type":"Feature","properties":{"marker-color":"#7e7e7e","marker-size":"medium","marker-symbol":"","type":"restauracja","name":"Sajgon","address":"al. Jana Pawła II 5","number":"32 227 27 72","link":"https://www.restauracjatychy.pl/menu-2.html","opHours":"Pon-Nd: 10:00-21:00"},"geometry":{"type":"Point","coordinates":[18.984284865384044,50.114407857260154]}},{"type":"Feature","properties":{"marker-color":"#7e7e7e","marker-size":"medium","marker-symbol":"","type":"fastfood","name":"Wege Buła","address":"al. Jana Pawła II 9","number":"570 499 553","link":"https://www.wegebula.pl","opHours":"Pon-Śr: 12:00-03:00, Czw-Pt: 12:00-04:00, Sob 12:00-02:00, Nd: 12:00-03:00"},"geometry":{"type":"Point","coordinates":[18.98536311340249,50.11386089907839]}},{"type":"Feature","properties":{"marker-color":"#7e7e7e","marker-size":"medium","marker-symbol":"","type":"kebab","name":"Alanya Kebap","address":"al. Jana Pawła II 13","number":"787 655 665","link":"https://www.facebook.com/Alanya-Kebap-346771102016523","opHours":"Pon-Czw: 11:00-01:00, Pt-Sob: 11:00-02:00, Nd: 13:00-23:00"},"geometry":{"type":"Point","coordinates":[18.985636979341507,50.11366329212422]}},{"type":"Feature","properties":{"marker-color":"#7e7e7e","marker-size":"medium","marker-symbol":"","type":"fastfood","name":"Marcello Pizza & Burger","address":"ul. Nałkowskiej 6A","number":"514 638 016","link":"https://www.pizzamarcello.pl","opHours":"Pon-Czw: 12:00-2:30, Pt-Sob: 12:00-3:30, Nd: 12:00-1:30"},"geometry":{"type":"Point","coordinates":[18.9856722273741,50.1097816348942]}},{"type":"Feature","properties":{"marker-color":"#7e7e7e","marker-size":"medium","marker-symbol":"","type":"restauracja","name":"Griil Pub","address":"ul. Nałkowskiej 31","number":"32 493 02 52","link":"https://www.facebook.com/GrillPubTychy/?ref=page_internal","opHours":"Pon: 16:00-22:00, Wt-Nd: 12:00-22:00"},"geometry":{"type":"Point","coordinates":[18.98856901309749,50.10961305982666]}},{"type":"Feature","properties":{"marker-color":"#7e7e7e","marker-size":"medium","marker-symbol":"","type":"pizza","name":"MaxiPizza","address":"al. Bielska 109","number":"32 217 07 22","link":"https://www.maxipizza.pl/tychy","opHours":"Pon-Czw: 10:30-22:30, Pt-Sob: 10:30-23:30, Nd: 12:00-22:00"},"geometry":{"type":"Point","coordinates":[18.979054297456077,50.109699971922524]}},{"type":"Feature","properties":{"marker-color":"#7e7e7e","marker-size":"medium","marker-symbol":"","type":"kebab","name":"Bosfor Kebab","address":"ul. Piłsudskiego 1","number":"503 979 929","link":"https://bosfor-kebab.business.site","opHours":"Pon-Czw: 11:30-23:30, Pt-Sob: 12:00-23:30, Nd: 15:00-22:00"},"geometry":{"type":"Point","coordinates":[18.98154888277485,50.1097443924623]}},{"type":"Feature","properties":{"marker-color":"#7e7e7e","marker-size":"medium","marker-symbol":"","type":"restauracja","name":"43STO BISTRO","address":"ul. Piłsudskiego 8","number":"662 655 295","link":"https://www.facebook.com/43StoBistroTychy/","opHours":"Pon-Pt: 12:00-17:00, Sob: 10:00-16:00"},"geometry":{"type":"Point","coordinates":[18.982530355145318,50.1079379184217]}},{"type":"Feature","properties":{"marker-color":"#7e7e7e","marker-size":"medium","marker-symbol":"","type":"pizza","name":"Telepizza","address":"ul. Bocheńskiego 7","number":"32 327 00 31","link":"https://www.telepizza.pl/miasto/tychy","opHours":"Pon-Czw: 11:00-23:00, Pt-Sob: 11:00-0:00, Nd: 11:00-23:00"},"geometry":{"type":"Point","coordinates":[18.981480896472927,50.125878113614014]}},{"type":"Feature","properties":{"marker-color":"#7e7e7e","marker-size":"medium","marker-symbol":"","type":"nalesniki","name":"Naleśnikarnia","address":"Rynek 11/14","number":"(brak danych)","link":"(brak danych)","opHours":"(brak danych)"},"geometry":{"type":"Point","coordinates":[18.982003927230835,50.12901279150334]}},{"type":"Feature","properties":{"marker-color":"#7e7e7e","marker-size":"medium","marker-symbol":"","type":"restauracja","name":"Bistro & Bar Micha","address":"ul. Kościuszki 33","number":"793 670 703","link":"https://www.facebook.com/bistrobarremicha/","opHours":"Pon-Pt: 12:00-18:00"},"geometry":{"type":"Point","coordinates":[18.98340940475464,50.129506273924605]}},{"type":"Feature","properties":{"marker-color":"#7e7e7e","marker-size":"medium","marker-symbol":"","type":"restauracja","name":"Stara Poczta","address":"ul. Kościuszki 24","number":"32 324 27 00","link":"https://stara-poczta.pl/restauracja-tychy/","opHours":"(brak danych)"},"geometry":{"type":"Point","coordinates":[18.98535668849945,50.129140031360166]}},{"type":"Feature","properties":{"marker-color":"#7e7e7e","marker-size":"medium","marker-symbol":"","type":"kebab","name":"Kebab Heaven","address":"ul. Biblioteczna 26","number":"794 709 018","link":"https://www.kebabheaven24.pl/restauracja/kebab-heaven-tychy","opHours":"Pon-Czw: 11:00-00:00, Pt-Nd: 11:00-01:00"},"geometry":{"type":"Point","coordinates":[18.98412823677063,50.12627189408127]}},{"type":"Feature","properties":{"marker-color":"#7e7e7e","marker-size":"medium","marker-symbol":"","type":"restauracja","name":"Urbanowiczanka","address":"ul. Oświęcimska 260","number":"665 027 172","link":"https://www.facebook.com/Urbanowiczanka/","opHours":"Pon-Nd: 10:00-21:00"},"geometry":{"type":"Point","coordinates":[19.045329873692566,50.11084055412851]}},{"type":"Feature","properties":{"marker-color":"#7e7e7e","marker-size":"medium","marker-symbol":"","type":"restauracja","name":"Restauracja AB","address":"ul. Oświęcimska 148","number":"506 511 111","link":"https://abtychy.pl","opHours":"Pon-Nd: 10:00-20:00"},"geometry":{"type":"Point","coordinates":[19.0344937493171,50.116289560816824]}},{"type":"Feature","properties":{"marker-color":"#7e7e7e","marker-size":"medium","marker-symbol":"","type":"restauracja","name":"Irys","address":"ul. Dzwonkowa 60","number":"504 262 703","link":"https://restauracjairys.pl","opHours":"Pon-Sob: 12:00-18:00"},"geometry":{"type":"Point","coordinates":[19.01784186478371,50.13230753636088]}},{"type":"Feature","properties":{"marker-color":"#7e7e7e","marker-size":"medium","marker-symbol":"","type":"kebab","name":"Marhaba","address":"ul. Wyszyńskiego 14A","number":"534 206 392","link":"https://www.facebook.com/Kebab-Marhaba-Tychy-746699208861302/","opHours":"Pon: 11:00-2:00, Śr-Nd: 11:00-02:00"},"geometry":{"type":"Point","coordinates":[19.004346503377494,50.11323449764313]}},{"type":"Feature","properties":{"marker-color":"#7e7e7e","marker-size":"medium","marker-symbol":"","type":"kawiarnia","name":"Kawiarnia Co Bądź","address":"ul. Grota Roweckiego 28","number":"786 283 328","link":"https://kawiarniatychy.pl","opHours":"Pon-Pt: 08:00-21:00, Sob: 09:00-21:00, Nd: 10:00-21:00"},"geometry":{"type":"Point","coordinates":[18.99166375169584,50.11780576629362]}},{"type":"Feature","properties":{"marker-color":"#7e7e7e","marker-size":"medium","marker-symbol":"","type":"pizza","name":"Pizza Luka","address":"ul. Edukacji 58","number":"669 933 939","link":"https://www.facebook.com/pizzalukatychy/","opHours":"Wt-Czw: 13:00-22:00, Pt-Sob:13:00-23:00, Nd: 13:00-22:00 "},"geometry":{"type":"Point","coordinates":[18.995814785061118,50.118525474528006]}},{"type":"Feature","properties":{"marker-color":"#7e7e7e","marker-size":"medium","marker-symbol":"","type":"kebab","name":"Diamond Kebab","address":"ul. Dąbrowskiego 15","number":"739 657 574","link":"https://www.facebook.com/diamondkebab25/","opHours":"Pon-Czw: 10:00-01:00, Pt-Sob: 10:00-02:00, Nd: 11:00-0:00"},"geometry":{"type":"Point","coordinates":[18.990643991294412,50.11339147305007]}},{"type":"Feature","properties":{"marker-color":"#7e7e7e","marker-size":"medium","marker-symbol":"","type":"restauracja","name":"Kolorowy talerz","address":"ul. Grota Roweckiego 68","number":"512 550 809","link":"http://www.kolorowytalerz.pl","opHours":"Pon-Pt: 07:00-18:00"},"geometry":{"type":"Point","coordinates":[18.987243768932938,50.114136015125496]}},{"type":"Feature","properties":{"marker-color":"#7e7e7e","marker-size":"medium","marker-symbol":"","type":"restauracja","name":"Atmosfera","address":"ul. Dąbrowskiego 33","number":"507 622 555","link":"http://www.atmosfera.net.pl","opHours":"Pon-Czw: 11:00-17:00, Pt:11:00-17:00, 21:00-03:00, Sob: 21:00-03:00, Nd: 13:00-18:00"},"geometry":{"type":"Point","coordinates":[18.993441591180524,50.112315677387215]}},{"type":"Feature","properties":{"marker-color":"#7e7e7e","marker-size":"medium","marker-symbol":"","type":"orientalna","name":"Madara Ramen Shop","address":"ul. Darwina 25a","number":"530 239 949","link":"(brak danych)","opHours":"Sob: 14:00-22:00, Nd: 13:00-20:00"},"geometry":{"type":"Point","coordinates":[18.99502844700386,50.11133074846992]}},{"type":"Feature","properties":{"marker-color":"#7e7e7e","marker-size":"medium","marker-symbol":"","type":"restauracja","name":"Stołówka Dioda","address":"ul. Dąbrowskiego 95","number":"606 326 053","link":"https://stolowkadioda.pl","opHours":"Pon-Pt: 10:00-16:00"},"geometry":{"type":"Point","coordinates":[19.000280556042643,50.109016891069665]}},{"type":"Feature","properties":{"marker-color":"#7e7e7e","marker-size":"medium","marker-symbol":"","type":"restauracja","name":"Magnolia","address":"ul. Oświęcimska 164","number":"32 216 97 34","link":"http://www.restauracjamagnolia.pl","opHours":"Pon-Nd: 13:00-21:00"},"geometry":{"type":"Point","coordinates":[19.036463499069214,50.11532909403141]}},{"type":"Feature","properties":{"marker-color":"#7e7e7e","marker-size":"medium","marker-symbol":"","type":"restauracja","name":"Mihiderka","address":"ul. Towarowa 2C","number":"32 213 86 32","link":"https://www.mihiderka.pl","opHours":"Pon-Pt: 12:00-20:00, Sob: 09:00-20:00"},"geometry":{"type":"Point","coordinates":[19.009129106998444,50.09592927341073]}},{"type":"Feature","properties":{"marker-color":"#7e7e7e","marker-size":"medium","marker-symbol":"","type":"fastfood","name":"KFC","address":"ul. Towarowa 2C","number":"801 464 646","link":"https://kfc.pl","opHours":"Pon-Sob: 09:00-21:00, Nd handlowa: 09:00-20:00"},"geometry":{"type":"Point","coordinates":[19.010024964809418,50.09666570516984]}},{"type":"Feature","properties":{"marker-color":"#7e7e7e","marker-size":"medium","marker-symbol":"","type":"kebab","name":"City Kebab","address":"ul. Towarowa 2C","number":"533 224 554","link":"(brak danych)","opHours":"Pon-Sob: 09:00-21:00, Nd handlowa: 09:00-20:00"},"geometry":{"type":"Point","coordinates":[19.00972187519073,50.09668807324708]}},{"type":"Feature","properties":{"marker-color":"#7e7e7e","marker-size":"medium","marker-symbol":"","type":"pizza","name":"Dominium","address":"ul. Jana Pawła II 14","number":"22 210 10 10","link":"https://dominospizza.pl/","opHours":"Pon-Czw: 11:00-22:00, Pt-Sob: 11:00-23:00, Nd: 11:00-22:00"},"geometry":{"type":"Point","coordinates":[18.98761510848999,50.112133317686244]}},{"type":"Feature","properties":{"marker-color":"#7e7e7e","marker-size":"medium","marker-symbol":"","type":"wloska","name":"Nudle w Zołzie","address":"ul. Jana Pawła II 19","number":"730 770 257","link":"https://www.facebook.com/NudleWZolzie","opHours":"Pon-Pt: 10:00-18:00, Sob: 10:00-19:00, Nd: 12:00-19:00"},"geometry":{"type":"Point","coordinates":[18.98590044539998,50.11353857616469]}},{"type":"Feature","properties":{"marker-color":"#7e7e7e","marker-size":"medium","marker-symbol":"","type":"restauracja","name":"Placek czy Naleśnik","address":"ul. Jana Pawła II 13","number":"517 442 805","link":"https://facebook.com/placekczynalesnik/","opHours":"Pon-Nd: 11:00-20:00"},"geometry":{"type":"Point","coordinates":[18.985733940419067,50.113596419457636]}},{"type":"Feature","properties":{"marker-color":"#7e7e7e","marker-size":"medium","marker-symbol":"","type":"pizza","name":"da Grasso","address":"ul. Piłsudskiego 16","number":"504 914 989","link":"http://www.dagrasso.pl/tychy","opHours":"Pon-Czw: 11:00-22:00, Pt-Sob: 11:00-23:30, Nd: 12:00-22:00"},"geometry":{"type":"Point","coordinates":[18.984578847885132,50.106272693568656]}},{"type":"Feature","properties":{"marker-color":"#7e7e7e","marker-size":"medium","marker-symbol":"","type":"restauracja","name":"Bar Paprocański","address":"al. Niepodległości 33","number":"32 227 22 04","link":"https://www.facebook.com/barpaprocanski/?ref=page_internal","opHours":"Pon-Pt: 8:00-18:00, Sob: 8:00-17:00, Nd: 10:00-17:00"},"geometry":{"type":"Point","coordinates":[18.990541398525238,50.11733967500276]}},{"type":"Feature","properties":{"marker-color":"#7e7e7e","marker-size":"medium","marker-symbol":"","type":"restauracja","name":"Lokalizacja","address":"ul. Grota-Roweckiego 47","number":"507 598 599","link":"https://www.facebook.com/lokalizacjabistro","opHours":"Wt-Sob: 9:00-18:00, Nd: 10:00-18:00"},"geometry":{"type":"Point","coordinates":[18.99205148220062,50.11745576670637]}},{"type":"Feature","properties":{"marker-color":"#7e7e7e","marker-size":"medium","marker-symbol":"","type":"restauracja","name":"Tyska Stołówka","address":"ul. Jana Pawła II 7","number":"576 666 306","link":"https://tyskastolowka.pl/","opHours":"Pon-Pt: 11:00-17:00, Sob: 11:00-16:00"},"geometry":{"type":"Point","coordinates":[18.98488461971283,50.11404771309271]}},{"type":"Feature","properties":{"marker-color":"#7e7e7e","marker-size":"medium","marker-symbol":"","type":"pizza","name":"Happy Pizza","address":"ul. Dymarek 37","number":"510 444 755","link":"http://www.happypizza.pl/","opHours":"Pon-Czw: 12:00-23:00, Pt-Sob: 12:00-24:00, Nd: 12:00-23:00"},"geometry":{"type":"Point","coordinates":[18.993752002716064,50.09504485208656]}},{"type":"Feature","properties":{"marker-color":"#7e7e7e","marker-size":"medium","marker-symbol":"","type":"restauracja","name":"Strefa Smaku","address":"ul. Wyszyńskiego/Niepodległości","number":"796 033 838","link":"https://www.strefasmaku.com.pl/","opHours":"Pon-Sob: 10:00-19:00"},"geometry":{"type":"Point","coordinates":[19.002895653247833,50.11184606577014]}},{"type":"Feature","properties":{"marker-color":"#7e7e7e","marker-size":"medium","marker-symbol":"","type":"restauracja","name":"NotaBene","address":"ul. Poziomkowa 92","number":"605 585 588","link":"http://notabene-lunchbar.pl/","opHours":"Pon-Nd: 15:00-19:00"},"geometry":{"type":"Point","coordinates":[19.00256037712097,50.10180148574633]}},{"type":"Feature","properties":{"marker-color":"#7e7e7e","marker-size":"medium","marker-symbol":"","type":"fastfood","name":"Juicy Lucy","address":"ul. Jana Pawła II 10","number":"577 373 157","link":"http://www.juicylucy.pl/","opHours":" Pon-Czw: 12:00-22:00, Pt-Sob: 12:00-00:00, Nd: 12:00-22:00"},"geometry":{"type":"Point","coordinates":[18.98583874889447,50.111993469003046]}},{"type":"Feature","properties":{"marker-color":"#7e7e7e","marker-size":"medium","marker-symbol":"","type":"restauracja","name":"Gruszka & Pietruszka","address":"ul. Darwina 25","number":"537 676 866","link":"https://www.facebook.com/Gruszka-Pietruszka-Bistro-461444724277284/?ref=bookmarks","opHours":"Pon-Pt: 11:30-18:00, Nd: 12:00-16:00"},"geometry":{"type":"Point","coordinates":[18.995115906000137,50.111459907036036]}},{"type":"Feature","properties":{"marker-color":"#7e7e7e","marker-size":"medium","marker-symbol":"","type":"kebab","name":"Alanya Kebap","address":"al. Niepodległości 188","number":"787 655 665","link":"(brak danych)","opHours":"Pon-Sob: 11:00-24:00, Nd: 13:00-23:00"},"geometry":{"type":"Point","coordinates":[19.002203643321987,50.11105568408984]}}]}
